[
  { "id": "mp-cit-001", "mode": "map", "difficulty": "easy", "category": "Capitales", "prompt": "Place Paris.", "targetLat": 48.8566, "targetLng": 2.3522, "targetLabel": "Paris, France", "maxKm": 2500 },
  { "id": "mp-cit-002", "mode": "map", "difficulty": "easy", "category": "Capitales", "prompt": "Place Londres.", "targetLat": 51.5074, "targetLng": -0.1278, "targetLabel": "Londres, Royaume-Uni", "maxKm": 2500 },
  { "id": "mp-cit-003", "mode": "map", "difficulty": "easy", "category": "Capitales", "prompt": "Place Tokyo.", "targetLat": 35.6762, "targetLng": 139.6503, "targetLabel": "Tokyo, Japon", "maxKm": 2500 },
  { "id": "mp-cit-004", "mode": "map", "difficulty": "easy", "category": "Capitales", "prompt": "Place New York.", "targetLat": 40.7128, "targetLng": -74.0060, "targetLabel": "New York, USA", "maxKm": 2500 },
  { "id": "mp-cit-005", "mode": "map", "difficulty": "easy", "category": "Capitales", "prompt": "Place Sydney.", "targetLat": -33.8688, "targetLng": 151.2093, "targetLabel": "Sydney, Australie", "maxKm": 2500 },
  { "id": "mp-cit-006", "mode": "map", "difficulty": "easy", "category": "Capitales", "prompt": "Place Rome.", "targetLat": 41.9028, "targetLng": 12.4964, "targetLabel": "Rome, Italie", "maxKm": 2500 },
  { "id": "mp-cit-007", "mode": "map", "difficulty": "easy", "category": "Capitales", "prompt": "Place Le Caire.", "targetLat": 30.0444, "targetLng": 31.2357, "targetLabel": "Le Caire, Égypte", "maxKm": 2500 },

  { "id": "mp-cit-010", "mode": "map", "difficulty": "medium", "category": "Capitales", "prompt": "Place Istanbul.", "targetLat": 41.0082, "targetLng": 28.9784, "targetLabel": "Istanbul, Turquie", "maxKm": 3500 },
  { "id": "mp-cit-011", "mode": "map", "difficulty": "medium", "category": "Capitales", "prompt": "Place Bangkok.", "targetLat": 13.7563, "targetLng": 100.5018, "targetLabel": "Bangkok, Thaïlande", "maxKm": 3500 },
  { "id": "mp-cit-012", "mode": "map", "difficulty": "medium", "category": "Capitales", "prompt": "Place Moscou.", "targetLat": 55.7558, "targetLng": 37.6173, "targetLabel": "Moscou, Russie", "maxKm": 3500 },
  { "id": "mp-cit-013", "mode": "map", "difficulty": "medium", "category": "Capitales", "prompt": "Place Buenos Aires.", "targetLat": -34.6037, "targetLng": -58.3816, "targetLabel": "Buenos Aires, Argentine", "maxKm": 3500 },
  { "id": "mp-cit-014", "mode": "map", "difficulty": "medium", "category": "Capitales", "prompt": "Place Reykjavik.", "targetLat": 64.1466, "targetLng": -21.9426, "targetLabel": "Reykjavik, Islande", "maxKm": 3500 },
  { "id": "mp-cit-015", "mode": "map", "difficulty": "medium", "category": "Capitales", "prompt": "Place Dubaï.", "targetLat": 25.2048, "targetLng": 55.2708, "targetLabel": "Dubaï, Émirats arabes unis", "maxKm": 3500 },

  { "id": "mp-cit-020", "mode": "map", "difficulty": "hard", "category": "Capitales", "prompt": "Place Oulan-Bator.", "targetLat": 47.8864, "targetLng": 106.9057, "targetLabel": "Oulan-Bator, Mongolie", "maxKm": 5000 },
  { "id": "mp-cit-021", "mode": "map", "difficulty": "hard", "category": "Capitales", "prompt": "Place Nouakchott.", "targetLat": 18.0735, "targetLng": -15.9582, "targetLabel": "Nouakchott, Mauritanie", "maxKm": 5000 },
  { "id": "mp-cit-022", "mode": "map", "difficulty": "hard", "category": "Capitales", "prompt": "Place Astana.", "targetLat": 51.1694, "targetLng": 71.4491, "targetLabel": "Astana, Kazakhstan", "maxKm": 5000 },
  { "id": "mp-cit-023", "mode": "map", "difficulty": "hard", "category": "Capitales", "prompt": "Place Paramaribo.", "targetLat": 5.8520, "targetLng": -55.2038, "targetLabel": "Paramaribo, Suriname", "maxKm": 5000 },
  { "id": "mp-cit-024", "mode": "map", "difficulty": "hard", "category": "Capitales", "prompt": "Place Tbilissi.", "targetLat": 41.7151, "targetLng": 44.8271, "targetLabel": "Tbilissi, Géorgie", "maxKm": 5000 },

  { "id": "mp-mon-001", "mode": "map", "difficulty": "easy", "category": "Monuments", "prompt": "Place la Tour Eiffel.", "targetLat": 48.8584, "targetLng": 2.2945, "targetLabel": "Tour Eiffel, Paris", "maxKm": 2500 },
  { "id": "mp-mon-002", "mode": "map", "difficulty": "easy", "category": "Monuments", "prompt": "Place le Colisée.", "targetLat": 41.8902, "targetLng": 12.4922, "targetLabel": "Colisée, Rome", "maxKm": 2500 },
  { "id": "mp-mon-003", "mode": "map", "difficulty": "easy", "category": "Monuments", "prompt": "Place la Statue de la Liberté.", "targetLat": 40.6892, "targetLng": -74.0445, "targetLabel": "Statue de la Liberté, New York", "maxKm": 2500 },
  { "id": "mp-mon-004", "mode": "map", "difficulty": "medium", "category": "Monuments", "prompt": "Place le Taj Mahal.", "targetLat": 27.1751, "targetLng": 78.0421, "targetLabel": "Taj Mahal, Inde", "maxKm": 3500 },
  { "id": "mp-mon-005", "mode": "map", "difficulty": "medium", "category": "Monuments", "prompt": "Place le Machu Picchu.", "targetLat": -13.1631, "targetLng": -72.5450, "targetLabel": "Machu Picchu, Pérou", "maxKm": 3500 },
  { "id": "mp-mon-006", "mode": "map", "difficulty": "medium", "category": "Monuments", "prompt": "Place les pyramides de Gizeh.", "targetLat": 29.9792, "targetLng": 31.1342, "targetLabel": "Gizeh, Égypte", "maxKm": 3500 },
  { "id": "mp-mon-007", "mode": "map", "difficulty": "hard", "category": "Monuments", "prompt": "Place Angkor Vat.", "targetLat": 13.4125, "targetLng": 103.8670, "targetLabel": "Angkor Vat, Cambodge", "maxKm": 5000 },
  { "id": "mp-mon-008", "mode": "map", "difficulty": "hard", "category": "Monuments", "prompt": "Place le Christ Rédempteur.", "targetLat": -22.9519, "targetLng": -43.2105, "targetLabel": "Christ Rédempteur, Rio", "maxKm": 5000 },
  { "id": "mp-mon-009", "mode": "map", "difficulty": "hard", "category": "Monuments", "prompt": "Place Petra.", "targetLat": 30.3285, "targetLng": 35.4444, "targetLabel": "Petra, Jordanie", "maxKm": 5000 },
  { "id": "mp-mon-010", "mode": "map", "difficulty": "hard", "category": "Monuments", "prompt": "Place les moaï de l'île de Pâques.", "targetLat": -27.1127, "targetLng": -109.3497, "targetLabel": "Île de Pâques, Chili", "maxKm": 5000 },

  { "id": "mp-nat-001", "mode": "map", "difficulty": "easy", "category": "Nature", "prompt": "Place le mont Everest.", "targetLat": 27.9881, "targetLng": 86.9250, "targetLabel": "Mont Everest, Népal/Chine", "maxKm": 2500 },
  { "id": "mp-nat-002", "mode": "map", "difficulty": "medium", "category": "Nature", "prompt": "Place le mont Kilimandjaro.", "targetLat": -3.0674, "targetLng": 37.3556, "targetLabel": "Kilimandjaro, Tanzanie", "maxKm": 3500 },
  { "id": "mp-nat-003", "mode": "map", "difficulty": "medium", "category": "Nature", "prompt": "Place les chutes Victoria.", "targetLat": -17.9243, "targetLng": 25.8572, "targetLabel": "Chutes Victoria, Zambie/Zimbabwe", "maxKm": 3500 },
  { "id": "mp-nat-004", "mode": "map", "difficulty": "easy", "category": "Nature", "prompt": "Place le Grand Canyon.", "targetLat": 36.1069, "targetLng": -112.1129, "targetLabel": "Grand Canyon, USA", "maxKm": 2500 },
  { "id": "mp-nat-005", "mode": "map", "difficulty": "hard", "category": "Nature", "prompt": "Place le lac Baïkal.", "targetLat": 53.5587, "targetLng": 108.1650, "targetLabel": "Lac Baïkal, Russie", "maxKm": 5000 },
  { "id": "mp-nat-006", "mode": "map", "difficulty": "hard", "category": "Nature", "prompt": "Place le salar d'Uyuni.", "targetLat": -20.1338, "targetLng": -67.4891, "targetLabel": "Salar d'Uyuni, Bolivie", "maxKm": 5000 },
  { "id": "mp-nat-007", "mode": "map", "difficulty": "medium", "category": "Nature", "prompt": "Place la Grande Barrière de corail.", "targetLat": -18.2871, "targetLng": 147.6992, "targetLabel": "Grande Barrière, Australie", "maxKm": 3500 },
  { "id": "mp-nat-008", "mode": "map", "difficulty": "hard", "category": "Nature", "prompt": "Place le désert du Gobi (centre approx.).", "targetLat": 42.5, "targetLng": 105.0, "targetLabel": "Désert du Gobi, Mongolie/Chine", "maxKm": 5000 },

  { "id": "mp-fle-001", "mode": "map", "difficulty": "medium", "category": "Fleuves", "prompt": "Place la source du Nil (lac Victoria).", "targetLat": -0.7571, "targetLng": 33.4375, "targetLabel": "Source du Nil, lac Victoria", "maxKm": 3500 },
  { "id": "mp-fle-002", "mode": "map", "difficulty": "medium", "category": "Fleuves", "prompt": "Place l'embouchure de l'Amazone.", "targetLat": -0.1807, "targetLng": -48.4793, "targetLabel": "Embouchure de l'Amazone, Brésil", "maxKm": 3500 },
  { "id": "mp-fle-003", "mode": "map", "difficulty": "medium", "category": "Fleuves", "prompt": "Place le delta du Gange.", "targetLat": 22.2734, "targetLng": 89.6710, "targetLabel": "Delta du Gange, Bangladesh/Inde", "maxKm": 3500 },
  { "id": "mp-fle-004", "mode": "map", "difficulty": "hard", "category": "Fleuves", "prompt": "Place l'embouchure du Mississippi.", "targetLat": 29.1557, "targetLng": -89.2533, "targetLabel": "Delta du Mississippi, USA", "maxKm": 5000 },

  { "id": "mp-can-001", "mode": "map", "difficulty": "medium", "category": "Canaux & détroits", "prompt": "Place le canal de Panama.", "targetLat": 9.0820, "targetLng": -79.7700, "targetLabel": "Canal de Panama", "maxKm": 3500 },
  { "id": "mp-can-002", "mode": "map", "difficulty": "medium", "category": "Canaux & détroits", "prompt": "Place le canal de Suez.", "targetLat": 30.5852, "targetLng": 32.2653, "targetLabel": "Canal de Suez", "maxKm": 3500 },
  { "id": "mp-can-003", "mode": "map", "difficulty": "hard", "category": "Canaux & détroits", "prompt": "Place le détroit de Gibraltar.", "targetLat": 35.9588, "targetLng": -5.5930, "targetLabel": "Détroit de Gibraltar", "maxKm": 5000 },
  { "id": "mp-can-004", "mode": "map", "difficulty": "hard", "category": "Canaux & détroits", "prompt": "Place le détroit de Béring.", "targetLat": 65.7167, "targetLng": -169.0000, "targetLabel": "Détroit de Béring", "maxKm": 5000 },

  { "id": "mp-ile-001", "mode": "map", "difficulty": "medium", "category": "Îles", "prompt": "Place Madagascar.", "targetLat": -18.7669, "targetLng": 46.8691, "targetLabel": "Madagascar", "maxKm": 3500 },
  { "id": "mp-ile-002", "mode": "map", "difficulty": "medium", "category": "Îles", "prompt": "Place l'Islande.", "targetLat": 64.9631, "targetLng": -19.0208, "targetLabel": "Islande", "maxKm": 3500 },
  { "id": "mp-ile-003", "mode": "map", "difficulty": "hard", "category": "Îles", "prompt": "Place les Galápagos.", "targetLat": -0.9538, "targetLng": -90.9656, "targetLabel": "Galápagos, Équateur", "maxKm": 5000 },
  { "id": "mp-ile-004", "mode": "map", "difficulty": "hard", "category": "Îles", "prompt": "Place les Seychelles.", "targetLat": -4.6796, "targetLng": 55.4920, "targetLabel": "Seychelles", "maxKm": 5000 },
  { "id": "mp-ile-005", "mode": "map", "difficulty": "hard", "category": "Îles", "prompt": "Place l'île de Hawaï.", "targetLat": 19.8968, "targetLng": -155.5828, "targetLabel": "Hawaï, USA", "maxKm": 5000 },

  { "id": "mp-his-001", "mode": "map", "difficulty": "medium", "category": "Histoire", "prompt": "Place la plage d'Omaha Beach (Débarquement).", "targetLat": 49.3720, "targetLng": -0.9044, "targetLabel": "Omaha Beach, Normandie", "maxKm": 3500 },
  { "id": "mp-his-002", "mode": "map", "difficulty": "medium", "category": "Histoire", "prompt": "Place Hiroshima.", "targetLat": 34.3853, "targetLng": 132.4553, "targetLabel": "Hiroshima, Japon", "maxKm": 3500 },
  { "id": "mp-his-003", "mode": "map", "difficulty": "hard", "category": "Histoire", "prompt": "Place Tchernobyl.", "targetLat": 51.3890, "targetLng": 30.0991, "targetLabel": "Tchernobyl, Ukraine", "maxKm": 5000 },
  { "id": "mp-his-004", "mode": "map", "difficulty": "hard", "category": "Histoire", "prompt": "Place Stalingrad (Volgograd aujourd'hui).", "targetLat": 48.7080, "targetLng": 44.5133, "targetLabel": "Volgograd (ex-Stalingrad)", "maxKm": 5000 }
]
