[
  { "id": "mp-001", "mode": "map", "difficulty": "easy", "category": "Géographie", "prompt": "Place Paris sur la carte.", "targetLat": 48.8566, "targetLng": 2.3522, "targetLabel": "Paris, France", "maxKm": 2000 },
  { "id": "mp-002", "mode": "map", "difficulty": "easy", "category": "Géographie", "prompt": "Place Londres.", "targetLat": 51.5074, "targetLng": -0.1278, "targetLabel": "Londres, Royaume-Uni", "maxKm": 2000 },
  { "id": "mp-003", "mode": "map", "difficulty": "easy", "category": "Géographie", "prompt": "Place Tokyo.", "targetLat": 35.6762, "targetLng": 139.6503, "targetLabel": "Tokyo, Japon", "maxKm": 4000 },
  { "id": "mp-004", "mode": "map", "difficulty": "easy", "category": "Géographie", "prompt": "Place New York.", "targetLat": 40.7128, "targetLng": -74.0060, "targetLabel": "New York, USA", "maxKm": 3000 },
  { "id": "mp-005", "mode": "map", "difficulty": "easy", "category": "Géographie", "prompt": "Place Sydney.", "targetLat": -33.8688, "targetLng": 151.2093, "targetLabel": "Sydney, Australie", "maxKm": 5000 },
  { "id": "mp-006", "mode": "map", "difficulty": "easy", "category": "Géographie", "prompt": "Place Le Caire.", "targetLat": 30.0444, "targetLng": 31.2357, "targetLabel": "Le Caire, Égypte", "maxKm": 3000 },
  { "id": "mp-007", "mode": "map", "difficulty": "easy", "category": "Géographie", "prompt": "Place Rio de Janeiro.", "targetLat": -22.9068, "targetLng": -43.1729, "targetLabel": "Rio de Janeiro, Brésil", "maxKm": 4000 },
  { "id": "mp-008", "mode": "map", "difficulty": "medium", "category": "Géographie", "prompt": "Place Istanbul.", "targetLat": 41.0082, "targetLng": 28.9784, "targetLabel": "Istanbul, Turquie", "maxKm": 2500 },
  { "id": "mp-009", "mode": "map", "difficulty": "medium", "category": "Géographie", "prompt": "Place Bangkok.", "targetLat": 13.7563, "targetLng": 100.5018, "targetLabel": "Bangkok, Thaïlande", "maxKm": 3500 },
  { "id": "mp-010", "mode": "map", "difficulty": "medium", "category": "Géographie", "prompt": "Place Moscou.", "targetLat": 55.7558, "targetLng": 37.6173, "targetLabel": "Moscou, Russie", "maxKm": 2500 },
  { "id": "mp-011", "mode": "map", "difficulty": "medium", "category": "Géographie", "prompt": "Place Mexico.", "targetLat": 19.4326, "targetLng": -99.1332, "targetLabel": "Mexico, Mexique", "maxKm": 3000 },
  { "id": "mp-012", "mode": "map", "difficulty": "medium", "category": "Géographie", "prompt": "Place Buenos Aires.", "targetLat": -34.6037, "targetLng": -58.3816, "targetLabel": "Buenos Aires, Argentine", "maxKm": 4000 },
  { "id": "mp-013", "mode": "map", "difficulty": "medium", "category": "Géographie", "prompt": "Place Lagos.", "targetLat": 6.5244, "targetLng": 3.3792, "targetLabel": "Lagos, Nigéria", "maxKm": 3000 },
  { "id": "mp-014", "mode": "map", "difficulty": "medium", "category": "Géographie", "prompt": "Place Reykjavik.", "targetLat": 64.1466, "targetLng": -21.9426, "targetLabel": "Reykjavik, Islande", "maxKm": 2500 },
  { "id": "mp-015", "mode": "map", "difficulty": "medium", "category": "Géographie", "prompt": "Place Oslo.", "targetLat": 59.9139, "targetLng": 10.7522, "targetLabel": "Oslo, Norvège", "maxKm": 2000 },
  { "id": "mp-016", "mode": "map", "difficulty": "medium", "category": "Géographie", "prompt": "Place Dubaï.", "targetLat": 25.2048, "targetLng": 55.2708, "targetLabel": "Dubaï, Émirats arabes unis", "maxKm": 3000 },
  { "id": "mp-017", "mode": "map", "difficulty": "hard", "category": "Géographie", "prompt": "Place Vladivostok.", "targetLat": 43.1155, "targetLng": 131.8855, "targetLabel": "Vladivostok, Russie", "maxKm": 4000 },
  { "id": "mp-018", "mode": "map", "difficulty": "hard", "category": "Géographie", "prompt": "Place Oulan-Bator.", "targetLat": 47.8864, "targetLng": 106.9057, "targetLabel": "Oulan-Bator, Mongolie", "maxKm": 4000 },
  { "id": "mp-019", "mode": "map", "difficulty": "hard", "category": "Géographie", "prompt": "Place Suva.", "targetLat": -18.1416, "targetLng": 178.4419, "targetLabel": "Suva, Fidji", "maxKm": 6000 },
  { "id": "mp-020", "mode": "map", "difficulty": "hard", "category": "Géographie", "prompt": "Place Nouakchott.", "targetLat": 18.0735, "targetLng": -15.9582, "targetLabel": "Nouakchott, Mauritanie", "maxKm": 3000 },
  { "id": "mp-021", "mode": "map", "difficulty": "hard", "category": "Géographie", "prompt": "Place Astana.", "targetLat": 51.1694, "targetLng": 71.4491, "targetLabel": "Astana, Kazakhstan", "maxKm": 3000 },
  { "id": "mp-022", "mode": "map", "difficulty": "hard", "category": "Géographie", "prompt": "Place Paramaribo.", "targetLat": 5.8520, "targetLng": -55.2038, "targetLabel": "Paramaribo, Suriname", "maxKm": 4000 },
  { "id": "mp-023", "mode": "map", "difficulty": "hard", "category": "Géographie", "prompt": "Place Tbilissi.", "targetLat": 41.7151, "targetLng": 44.8271, "targetLabel": "Tbilissi, Géorgie", "maxKm": 2500 },
  { "id": "mp-024", "mode": "map", "difficulty": "hard", "category": "Géographie", "prompt": "Place Pyongyang.", "targetLat": 39.0392, "targetLng": 125.7625, "targetLabel": "Pyongyang, Corée du Nord", "maxKm": 3500 },
  { "id": "mp-025", "mode": "map", "difficulty": "easy", "category": "Géographie", "prompt": "Place le mont Everest.", "targetLat": 27.9881, "targetLng": 86.9250, "targetLabel": "Mont Everest, Népal/Chine", "maxKm": 3500 },
  { "id": "mp-026", "mode": "map", "difficulty": "medium", "category": "Géographie", "prompt": "Place le canal de Panama.", "targetLat": 9.0820, "targetLng": -79.7700, "targetLabel": "Canal de Panama", "maxKm": 3000 },
  { "id": "mp-027", "mode": "map", "difficulty": "medium", "category": "Géographie", "prompt": "Place le canal de Suez.", "targetLat": 30.5852, "targetLng": 32.2653, "targetLabel": "Canal de Suez", "maxKm": 3000 },
  { "id": "mp-028", "mode": "map", "difficulty": "medium", "category": "Géographie", "prompt": "Place les chutes Victoria.", "targetLat": -17.9243, "targetLng": 25.8572, "targetLabel": "Chutes Victoria", "maxKm": 3500 },
  { "id": "mp-029", "mode": "map", "difficulty": "easy", "category": "Géographie", "prompt": "Place le Machu Picchu.", "targetLat": -13.1631, "targetLng": -72.5450, "targetLabel": "Machu Picchu, Pérou", "maxKm": 4000 },
  { "id": "mp-030", "mode": "map", "difficulty": "hard", "category": "Géographie", "prompt": "Place l'île de Pâques.", "targetLat": -27.1127, "targetLng": -109.3497, "targetLabel": "Île de Pâques, Chili", "maxKm": 5000 },
  { "id": "mp-031", "mode": "map", "difficulty": "medium", "category": "Géographie", "prompt": "Place Kiev.", "targetLat": 50.4501, "targetLng": 30.5234, "targetLabel": "Kiev, Ukraine", "maxKm": 2500 },
  { "id": "mp-032", "mode": "map", "difficulty": "medium", "category": "Géographie", "prompt": "Place Jakarta.", "targetLat": -6.2088, "targetLng": 106.8456, "targetLabel": "Jakarta, Indonésie", "maxKm": 4000 },
  { "id": "mp-033", "mode": "map", "difficulty": "hard", "category": "Géographie", "prompt": "Place Tombouctou.", "targetLat": 16.7666, "targetLng": -3.0026, "targetLabel": "Tombouctou, Mali", "maxKm": 3000 },
  { "id": "mp-034", "mode": "map", "difficulty": "easy", "category": "Géographie", "prompt": "Place Berlin.", "targetLat": 52.5200, "targetLng": 13.4050, "targetLabel": "Berlin, Allemagne", "maxKm": 2000 },
  { "id": "mp-035", "mode": "map", "difficulty": "easy", "category": "Géographie", "prompt": "Place Athènes.", "targetLat": 37.9838, "targetLng": 23.7275, "targetLabel": "Athènes, Grèce", "maxKm": 2500 },
  { "id": "mp-036", "mode": "map", "difficulty": "medium", "category": "Géographie", "prompt": "Place Tachkent.", "targetLat": 41.2995, "targetLng": 69.2401, "targetLabel": "Tachkent, Ouzbékistan", "maxKm": 3500 },
  { "id": "mp-037", "mode": "map", "difficulty": "hard", "category": "Géographie", "prompt": "Place Ushuaia.", "targetLat": -54.8019, "targetLng": -68.3030, "targetLabel": "Ushuaia, Argentine", "maxKm": 5000 },
  { "id": "mp-038", "mode": "map", "difficulty": "medium", "category": "Géographie", "prompt": "Place Dakar.", "targetLat": 14.7167, "targetLng": -17.4677, "targetLabel": "Dakar, Sénégal", "maxKm": 3000 },
  { "id": "mp-039", "mode": "map", "difficulty": "medium", "category": "Géographie", "prompt": "Place Hanoï.", "targetLat": 21.0285, "targetLng": 105.8542, "targetLabel": "Hanoï, Vietnam", "maxKm": 3500 },
  { "id": "mp-040", "mode": "map", "difficulty": "hard", "category": "Géographie", "prompt": "Place Antananarivo.", "targetLat": -18.8792, "targetLng": 47.5079, "targetLabel": "Antananarivo, Madagascar", "maxKm": 4000 },
  { "id": "mp-041", "mode": "map", "difficulty": "easy", "category": "Géographie", "prompt": "Place Rome.", "targetLat": 41.9028, "targetLng": 12.4964, "targetLabel": "Rome, Italie", "maxKm": 2000 },
  { "id": "mp-042", "mode": "map", "difficulty": "medium", "category": "Géographie", "prompt": "Place Marseille.", "targetLat": 43.2965, "targetLng": 5.3698, "targetLabel": "Marseille, France", "maxKm": 1500 },
  { "id": "mp-043", "mode": "map", "difficulty": "medium", "category": "Géographie", "prompt": "Place Lisbonne.", "targetLat": 38.7223, "targetLng": -9.1393, "targetLabel": "Lisbonne, Portugal", "maxKm": 2000 },
  { "id": "mp-044", "mode": "map", "difficulty": "medium", "category": "Géographie", "prompt": "Place Stockholm.", "targetLat": 59.3293, "targetLng": 18.0686, "targetLabel": "Stockholm, Suède", "maxKm": 2000 },
  { "id": "mp-045", "mode": "map", "difficulty": "hard", "category": "Géographie", "prompt": "Place Chisinau.", "targetLat": 47.0105, "targetLng": 28.8638, "targetLabel": "Chișinău, Moldavie", "maxKm": 2500 }
]
